{"params": {"riders": 1777, "demand": 2141, "max_ride": 96, "seconds": 400, "stops": 691, "depot": [10.20755, 77.806206], "method": "OR-Tools VRP"}, "assumptions": {"own_driver_day": 692, "own_maint_day": 471, "own_diesel_per_km": 18.0, "own_diesel_per_litre": 100.0, "own_mileage_kmpl": 5.56, "own_insurance_day": 676, "rent_tariff": "\u226480km \u20b91700 \u00b7 \u226495km \u20b91900 \u00b7 beyond \u20b918.7/km", "absentee_pct": 12, "buffer_pct": 3, "working_days": 26, "cap_leniency": 5, "demand_per_stop": 3.1, "owned_loan": "excluded (capital, not operating cost)", "road_source": "cached Google road matrix (real driving km + minutes)"}, "overall": {"buses": 69, "riders": 2141, "seats": 2151, "stops": 691, "avg_stops": 10.014492753623188, "util": 99.53509995351, "max_ride": 95.36699999999999, "avg_ride": 59.354449275362335, "km": 4666.218000000001, "cost": 152273.6678, "cost_head": 71.1226846333489}, "owned": {"buses": 29, "riders": 1358, "seats": 1557, "stops": 354, "avg_stops": 12.206896551724139, "util": 87.21901091843289, "max_ride": 89.449, "avg_ride": 48.019206896551715, "km": 1408.432, "cost": 78682.776, "cost_head": 57.94018851251841}, "rental": {"buses": 40, "riders": 783, "seats": 594, "stops": 337, "avg_stops": 8.425, "util": 131.8181818181818, "max_ride": 95.36699999999999, "avg_ride": 67.5725, "km": 3257.7859999999996, "cost": 73590.89179999998, "cost_head": 93.98581328224775}, "baseline": {"buses": 691, "km": 33264.9, "cost": 1186691, "desc": "one dedicated van per stop (no consolidation)"}, "routes": [{"name": "TN57CH3636", "type": "own", "cap": 55, "stops": 19, "riders": 56, "km": 56.6, "km_to_farthest": 19.4, "km_to_last": 17.1, "ride": 59, "cost": 2858, "seq": [{"name": "Kariyampatti 2", "lat": 10.164777, "lng": 77.873042, "hc": 13}, {"name": "Manavarathi", "lat": 10.16612, "lng": 77.878743, "hc": 2}, {"name": "Kavirayapuram", "lat": 10.169602, "lng": 77.879872, "hc": 1}, {"name": "Siragampatti", "lat": 10.170203, "lng": 77.88172, "hc": 2}, {"name": "Nariuthu Junction", "lat": 10.177638, "lng": 77.884032, "hc": 4}, {"name": "Uchanampatti", "lat": 10.175537, "lng": 77.890475, "hc": 7}, {"name": "Ammapatti 4", "lat": 10.174452, "lng": 77.898728, "hc": 2}, {"name": "Ammapatti 3", "lat": 10.175235, "lng": 77.900917, "hc": 1}, {"name": "Ammapatti 2", "lat": 10.175715, "lng": 77.906995, "hc": 2}, {"name": "Ammapatti Gas Godwon", "lat": 10.176825, "lng": 77.90803, "hc": 3}, {"name": "Janathapuram 3", "lat": 10.177413, "lng": 77.909432, "hc": 5}, {"name": "Janthapuram 2", "lat": 10.178883, "lng": 77.909122, "hc": 8}, {"name": "Kodai Road Railway Junction", "lat": 10.175791, "lng": 77.911634, "hc": 3}, {"name": "Ammayanakanur 2", "lat": 10.165301, "lng": 77.909625, "hc": 1}, {"name": "Malayagoundanpatti 1", "lat": 10.16084, "lng": 77.907282, "hc": 6}, {"name": "Malayagoundanpatti 2", "lat": 10.158814, "lng": 77.905351, "hc": 6}, {"name": "Malayagoundanpatti 3", "lat": 10.159625, "lng": 77.900964, "hc": 3}, {"name": "Sangarapuram 1", "lat": 10.158142, "lng": 77.899425, "hc": 4}, {"name": "Sangarapuram", "lat": 10.155951, "lng": 77.894731, "hc": 9}]}, {"name": "TN60AS3636", "type": "own", "cap": 55, "stops": 19, "riders": 54, "km": 92.1, "km_to_farthest": 30.7, "km_to_last": 28.6, "ride": 89, "cost": 3497, "seq": [{"name": "Polakkapatti", "lat": 10.063887, "lng": 77.85852, "hc": 1}, {"name": "Panamupanpatti", "lat": 10.057178, "lng": 77.86281, "hc": 4}, {"name": "Eravarpatti", "lat": 10.049712, "lng": 77.868755, "hc": 3}, {"name": "Kavulpatti", "lat": 10.043318, "lng": 77.875053, "hc": 7}, {"name": "Manalpatti", "lat": 10.032435, "lng": 77.880773, "hc": 1}, {"name": "Krishnapuram", "lat": 10.027817, "lng": 77.883142, "hc": 1}, {"name": "Melaperumalpatti", "lat": 10.024208, "lng": 77.887227, "hc": 4}, {"name": "Nariyampatti Pirivu", "lat": 10.018005, "lng": 77.89911, "hc": 6}, {"name": "Kovilpatti", "lat": 10.009138, "lng": 77.918757, "hc": 2}, {"name": "Vikiramangalam Theatre Stop", "lat": 10.008892, "lng": 77.921, "hc": 2}, {"name": "Vikiramangalam", "lat": 10.008628, "lng": 77.924047, "hc": 3}, {"name": "Kadupatti", "lat": 10.024452, "lng": 77.922657, "hc": 12}, {"name": "Mannadimangalam 2", "lat": 10.03556, "lng": 77.926317, "hc": 2}, {"name": "Mannadimangalam 4", "lat": 10.037558, "lng": 77.925765, "hc": 5}, {"name": "Mannadimangalam 6", "lat": 10.040222, "lng": 77.924073, "hc": 1}, {"name": "Kannudaiyalpuram", "lat": 10.045492, "lng": 77.913313, "hc": 4}, {"name": "Devarcolony", "lat": 10.050682, "lng": 77.908202, "hc": 1}, {"name": "Kuruvithurai", "lat": 10.05627, "lng": 77.906583, "hc": 12}, {"name": "Kovilur 2", "lat": 10.057222, "lng": 77.904028, "hc": 4}]}, {"name": "TN58BM3636", "type": "own", "cap": 54, "stops": 16, "riders": 48, "km": 72.3, "km_to_farthest": 26.0, "km_to_last": 20.8, "ride": 69, "cost": 3141, "seq": [{"name": "Pillayarnattam", "lat": 10.333742, "lng": 77.930493, "hc": 4}, {"name": "Kuttiyapatti Pirivu", "lat": 10.3431, "lng": 77.946328, "hc": 1}, {"name": "Thomaiyarpuram", "lat": 10.336604, "lng": 77.957143, "hc": 10}, {"name": "Dindigul Btl Bye Pass", "lat": 10.347587, "lng": 77.950751, "hc": 6}, {"name": "Dindigul Paraipatti", "lat": 10.35329, "lng": 77.958638, "hc": 1}, {"name": "Ap Nagar", "lat": 10.352307, "lng": 77.957398, "hc": 2}, {"name": "R.V.Nagar 1", "lat": 10.358373, "lng": 77.96299, "hc": 4}, {"name": "Muthalagupatti 2", "lat": 10.36165, "lng": 77.961002, "hc": 5}, {"name": "Muthalagupatti", "lat": 10.363327, "lng": 77.962562, "hc": 4}, {"name": "Pillaiyarpalayam", "lat": 10.366167, "lng": 77.976005, "hc": 5}, {"name": "Dinidgul Ganesh Theatre", "lat": 10.359126, "lng": 77.976197, "hc": 1}, {"name": "Dindigul Balaji Bavan", "lat": 10.360398, "lng": 77.978507, "hc": 6}, {"name": "Nagal Nagar Roundana", "lat": 10.355108, "lng": 77.977432, "hc": 8}, {"name": "Angu Vilas", "lat": 10.3562, "lng": 77.970523, "hc": 3}, {"name": "Mettupatti", "lat": 10.351783, "lng": 77.968338, "hc": 5}, {"name": "Ourlady School", "lat": 10.351552, "lng": 77.964796, "hc": 5}]}, {"name": "TN58BK3636", "type": "own", "cap": 54, "stops": 15, "riders": 43, "km": 31.7, "km_to_farthest": 13.5, "km_to_last": 5.2, "ride": 37, "cost": 2410, "seq": [{"name": "Veerasikkampatti", "lat": 10.246972, "lng": 77.826258, "hc": 2}, {"name": "Sokiligapuram Junction 2", "lat": 10.26473, "lng": 77.832248, "hc": 8}, {"name": "Sokiligapuram Junction 1", "lat": 10.265632, "lng": 77.830677, "hc": 3}, {"name": "Narasingapuram Junction", "lat": 10.268352, "lng": 77.821683, "hc": 2}, {"name": "Alagarnayakanpatti Mata Mill", "lat": 10.267903, "lng": 77.82531, "hc": 4}, {"name": "Alafarnayakanpatti Bus Stand", "lat": 10.267525, "lng": 77.827425, "hc": 10}, {"name": "Sithanyankottai Soceity Stop", "lat": 10.268577, "lng": 77.830007, "hc": 3}, {"name": "Sithanyankottai Nayakar Stop", "lat": 10.269802, "lng": 77.831592, "hc": 1}, {"name": "Sithanyankottai Coffee Kadai", "lat": 10.270195, "lng": 77.833198, "hc": 7}, {"name": "Sithanyankottai Gh", "lat": 10.270927, "lng": 77.835747, "hc": 2}, {"name": "Authoor Akaraipatti", "lat": 10.292293, "lng": 77.851232, "hc": 3}, {"name": "Authoor Taluk Office", "lat": 10.28705, "lng": 77.848847, "hc": 4}, {"name": "Authoor Pathara Office", "lat": 10.285407, "lng": 77.85122, "hc": 2}, {"name": "Authoor Bus Stand", "lat": 10.286995, "lng": 77.853347, "hc": 6}, {"name": "Authoor Poonsoorai", "lat": 10.2893, "lng": 77.85631, "hc": 6}]}, {"name": "TN58BP3434", "type": "own", "cap": 55, "stops": 15, "riders": 42, "km": 75.6, "km_to_farthest": 27.2, "km_to_last": 24.1, "ride": 64, "cost": 3200, "seq": [{"name": "D.vadipatti", "lat": 10.130706, "lng": 77.629875, "hc": 17}, {"name": "Silvarpatti 2", "lat": 10.118469, "lng": 77.624209, "hc": 7}, {"name": "Silvarpatti", "lat": 10.11688, "lng": 77.623083, "hc": 1}, {"name": "Silvarpatti Thanneer Panthal Road", "lat": 10.12031, "lng": 77.621176, "hc": 1}, {"name": "Silvarpatti Colony", "lat": 10.113019, "lng": 77.619419, "hc": 13}, {"name": "Jayamangalam 5", "lat": 10.096386, "lng": 77.612134, "hc": 3}, {"name": "Jayamanalam Colony", "lat": 10.088104, "lng": 77.61226, "hc": 1}, {"name": "Jayamangalam Colony 3", "lat": 10.090899, "lng": 77.612054, "hc": 6}, {"name": "Jayamangalam 4", "lat": 10.095789, "lng": 77.609868, "hc": 2}, {"name": "Jayamangalam 2", "lat": 10.096886, "lng": 77.604621, "hc": 1}, {"name": "Jayamangalam", "lat": 10.097746, "lng": 77.601659, "hc": 1}, {"name": "Jayamangalam 3", "lat": 10.096254, "lng": 77.60779, "hc": 2}, {"name": "Sinthugampatti", "lat": 10.095372, "lng": 77.62894, "hc": 1}, {"name": "Thulukapatti", "lat": 10.095652, "lng": 77.64048, "hc": 1}, {"name": "Thulukapatti 2", "lat": 10.098277, "lng": 77.641783, "hc": 1}]}, {"name": "TN60AS3434", "type": "own", "cap": 55, "stops": 15, "riders": 49, "km": 86.6, "km_to_farthest": 33.7, "km_to_last": 29.0, "ride": 78, "cost": 3398, "seq": [{"name": "Alagharnayakkanpatti", "lat": 10.117406, "lng": 77.59573, "hc": 5}, {"name": "Melmangalam 3", "lat": 10.10092, "lng": 77.583696, "hc": 1}, {"name": "Melmanalam 2", "lat": 10.101273, "lng": 77.580781, "hc": 1}, {"name": "Melmangalam", "lat": 10.103642, "lng": 77.578375, "hc": 9}, {"name": "Vadugapatti 2", "lat": 10.105436, "lng": 77.57487, "hc": 4}, {"name": "Vadugapatti", "lat": 10.105648, "lng": 77.572085, "hc": 6}, {"name": "Thamarikulam Kaliyamman Kovil", "lat": 10.107232, "lng": 77.557238, "hc": 5}, {"name": "Thamaraikulam VOC Silai", "lat": 10.109367, "lng": 77.5553, "hc": 5}, {"name": "Thamarai Sub Collerate Office", "lat": 10.109348, "lng": 77.549782, "hc": 3}, {"name": "College Vilaku", "lat": 10.108495, "lng": 77.546312, "hc": 4}, {"name": "Mundrathal", "lat": 10.120142, "lng": 77.54678, "hc": 2}, {"name": "Vagai Lodge", "lat": 10.120422, "lng": 77.549398, "hc": 2}, {"name": "Pangallapatti", "lat": 10.121876, "lng": 77.556846, "hc": 13}, {"name": "Periyakulam JC Shed", "lat": 10.120062, "lng": 77.551017, "hc": 3}, {"name": "State Bank Colony", "lat": 10.134072, "lng": 77.551646, "hc": 9}]}, {"name": "TN57CB3636", "type": "own", "cap": 50, "stops": 15, "riders": 46, "km": 31.2, "km_to_farthest": 11.8, "km_to_last": 2.0, "ride": 37, "cost": 2400, "seq": [{"name": "Singarakottai Stop2", "lat": 10.218318, "lng": 77.808013, "hc": 6}, {"name": "Singarakottai", "lat": 10.218969, "lng": 77.805565, "hc": 2}, {"name": "M.vadipatti 2", "lat": 10.186991, "lng": 77.774701, "hc": 8}, {"name": "M.vadipatti", "lat": 10.188473, "lng": 77.773366, "hc": 5}, {"name": "Vadipaati Guruvel Nagar", "lat": 10.192543, "lng": 77.770593, "hc": 1}, {"name": "Pativeeranpatti Anna Nagar 3", "lat": 10.205541, "lng": 77.765027, "hc": 1}, {"name": "Pativeeranpatti Anna Nagar 2", "lat": 10.207121, "lng": 77.764301, "hc": 3}, {"name": "Pativernapatti Anna Nagar 1", "lat": 10.209585, "lng": 77.762058, "hc": 4}, {"name": "Pativeeranpatti 3", "lat": 10.211539, "lng": 77.761895, "hc": 7}, {"name": "Pativeeranpatti 1", "lat": 10.214993, "lng": 77.759511, "hc": 11}, {"name": "Muneeshwaran Kovil Stop", "lat": 10.217673, "lng": 77.756905, "hc": 3}, {"name": "Thevakarupanpatti 1", "lat": 10.220835, "lng": 77.754488, "hc": 5}, {"name": "Veepa Mara Stop", "lat": 10.224622, "lng": 77.750647, "hc": 8}, {"name": "Ayyampalayam Alagar Kovil", "lat": 10.229938, "lng": 77.751828, "hc": 4}, {"name": "Ganesapuram", "lat": 10.232139, "lng": 77.75507, "hc": 1}]}, {"name": "TN57CF3434", "type": "own", "cap": 55, "stops": 14, "riders": 56, "km": 24.0, "km_to_farthest": 7.5, "km_to_last": 1.0, "ride": 31, "cost": 2271, "seq": [{"name": "Ottupatti", "lat": 10.2139, "lng": 77.807685, "hc": 8}, {"name": "PVP College", "lat": 10.216366, "lng": 77.809086, "hc": 10}, {"name": "Singarakottai", "lat": 10.218385, "lng": 77.810343, "hc": 11}, {"name": "Nallampillai", "lat": 10.225428, "lng": 77.813348, "hc": 1}, {"name": "Salaipudur", "lat": 10.228123, "lng": 77.814956, "hc": 13}, {"name": "Bodikamanvadi Stop 2", "lat": 10.254845, "lng": 77.823888, "hc": 1}, {"name": "Bodikamanvadi", "lat": 10.254857, "lng": 77.821863, "hc": 6}, {"name": "Sokilingapuram Bus Stand 2", "lat": 10.261193, "lng": 77.830865, "hc": 2}, {"name": "Sokilingapuram Bus Stand", "lat": 10.262993, "lng": 77.831547, "hc": 2}, {"name": "Sithayankottai 3rd Stop", "lat": 10.267741, "lng": 77.834993, "hc": 6}, {"name": "Sedapatti", "lat": 10.265063, "lng": 77.838133, "hc": 6}, {"name": "Sedapatti 1st Stop", "lat": 10.264592, "lng": 77.839788, "hc": 2}, {"name": "Sedapatti", "lat": 10.261702, "lng": 77.843397, "hc": 3}, {"name": "Sedapatti", "lat": 10.260728, "lng": 77.841635, "hc": 13}]}, {"name": "TN60AP3434", "type": "own", "cap": 55, "stops": 14, "riders": 58, "km": 78.9, "km_to_farthest": 22.9, "km_to_last": 19.2, "ride": 77, "cost": 3260, "seq": [{"name": "Koniyampatti", "lat": 10.078588, "lng": 77.795007, "hc": 3}, {"name": "Thuramayanpatti", "lat": 10.078127, "lng": 77.797318, "hc": 4}, {"name": "Vaththalpatti", "lat": 10.081105, "lng": 77.805767, "hc": 3}, {"name": "Nadakottai 2nd Stop", "lat": 10.082655, "lng": 77.817927, "hc": 9}, {"name": "Nadakottai 1st Stop", "lat": 10.082065, "lng": 77.822573, "hc": 2}, {"name": "Mettupatti", "lat": 10.081863, "lng": 77.851382, "hc": 9}, {"name": "Kalyanipatti", "lat": 10.069252, "lng": 77.848193, "hc": 2}, {"name": "Perumalpatti", "lat": 10.056467, "lng": 77.848287, "hc": 3}, {"name": "Kalluthu", "lat": 10.056433, "lng": 77.846705, "hc": 2}, {"name": "Nallichanpatti", "lat": 10.053017, "lng": 77.825918, "hc": 4}, {"name": "Paraipatti", "lat": 10.04707, "lng": 77.802187, "hc": 7}, {"name": "Uthappanayakkanur", "lat": 10.0375, "lng": 77.795418, "hc": 2}, {"name": "Uthapanayakannur 1", "lat": 10.035556, "lng": 77.792222, "hc": 15}, {"name": "Uthapanayakannur Stop 2", "lat": 10.03735, "lng": 77.790266, "hc": 13}]}, {"name": "TN57CK3636", "type": "own", "cap": 55, "stops": 14, "riders": 38, "km": 61.3, "km_to_farthest": 25.0, "km_to_last": 17.7, "ride": 63, "cost": 2943, "seq": [{"name": "Senkottai", "lat": 10.187127, "lng": 77.857399, "hc": 3}, {"name": "Ottur", "lat": 10.186966, "lng": 77.86112, "hc": 4}, {"name": "Sankalpatti Pirivu", "lat": 10.195404, "lng": 77.863129, "hc": 6}, {"name": "Michealpalayam Stop 2", "lat": 10.205597, "lng": 77.86577, "hc": 8}, {"name": "Rayapanpatti", "lat": 10.194428, "lng": 77.865062, "hc": 1}, {"name": "Michelpalayam", "lat": 10.193009, "lng": 77.880595, "hc": 2}, {"name": "Kattunayakanpatti", "lat": 10.197695, "lng": 77.885063, "hc": 4}, {"name": "Palampatti", "lat": 10.190891, "lng": 77.888557, "hc": 5}, {"name": "Bommayampatti Colony", "lat": 10.188032, "lng": 77.903393, "hc": 4}, {"name": "Bommayampatti", "lat": 10.186876, "lng": 77.905901, "hc": 4}, {"name": "Mamuthampatti", "lat": 10.181185, "lng": 77.905155, "hc": 5}, {"name": "Janathapuram", "lat": 10.182932, "lng": 77.907818, "hc": 1}, {"name": "Kodai Road Toll Gate Brdge", "lat": 10.188288, "lng": 77.910088, "hc": 2}, {"name": "Rajathanikottai", "lat": 10.188541, "lng": 77.912639, "hc": 6}]}, {"name": "TN57BP3434", "type": "own", "cap": 55, "stops": 13, "riders": 59, "km": 23.4, "km_to_farthest": 11.5, "km_to_last": 3.7, "ride": 32, "cost": 2261, "seq": [{"name": "Rengarajapuram", "lat": 10.225861, "lng": 77.792718, "hc": 6}, {"name": "Nelur Colony 1", "lat": 10.233466, "lng": 77.782441, "hc": 3}, {"name": "Kupinayakanpatti", "lat": 10.236647, "lng": 77.783503, "hc": 1}, {"name": "Sithur Gh", "lat": 10.239349, "lng": 77.782714, "hc": 3}, {"name": "Sithur 5", "lat": 10.242157, "lng": 77.782546, "hc": 9}, {"name": "Sithur 4", "lat": 10.243616, "lng": 77.782521, "hc": 17}, {"name": "Sithur Stop1", "lat": 10.243904, "lng": 77.784188, "hc": 8}, {"name": "Sithur 3", "lat": 10.243045, "lng": 77.780945, "hc": 2}, {"name": "Sithur 1", "lat": 10.241171, "lng": 77.778518, "hc": 1}, {"name": "Nellur Junction", "lat": 10.239951, "lng": 77.775931, "hc": 1}, {"name": "Kathirnaykanpatti Junction", "lat": 10.238438, "lng": 77.771846, "hc": 4}, {"name": "Chinna Ayyampalayam", "lat": 10.226872, "lng": 77.749553, "hc": 13}, {"name": "Ayyampalayam Bus Stand", "lat": 10.22426, "lng": 77.746831, "hc": 22}]}, {"name": "TN57CE3434", "type": "own", "cap": 55, "stops": 13, "riders": 41, "km": 54.6, "km_to_farthest": 25.4, "km_to_last": 11.4, "ride": 57, "cost": 2821, "seq": [{"name": "Kombaipatti", "lat": 10.136283, "lng": 77.791523, "hc": 5}, {"name": "Kulipatti", "lat": 10.127887, "lng": 77.789165, "hc": 5}, {"name": "Sivananapuram", "lat": 10.109412, "lng": 77.805372, "hc": 5}, {"name": "Sivaznapuram", "lat": 10.108882, "lng": 77.808788, "hc": 6}, {"name": "Bodiyakoundanpatti Stop 1", "lat": 10.107348, "lng": 77.816083, "hc": 5}, {"name": "Bodiyakoundanpatti Stop 2", "lat": 10.102098, "lng": 77.814508, "hc": 2}, {"name": "Kulichettypatti", "lat": 10.096553, "lng": 77.821605, "hc": 2}, {"name": "S.Vadipatti", "lat": 10.100573, "lng": 77.825747, "hc": 11}, {"name": "Eb Colony 2nd Stop", "lat": 10.101823, "lng": 77.841968, "hc": 2}, {"name": "Eb Colony", "lat": 10.100813, "lng": 77.840302, "hc": 5}, {"name": "Kulichettypatti Eb Colony", "lat": 10.099625, "lng": 77.839223, "hc": 2}, {"name": "Lakshmipuram", "lat": 10.090698, "lng": 77.82933, "hc": 6}, {"name": "Sithargal Natham", "lat": 10.086458, "lng": 77.842153, "hc": 6}]}, {"name": "TN58BS3434", "type": "own", "cap": 54, "stops": 13, "riders": 39, "km": 21.1, "km_to_farthest": 9.1, "km_to_last": 0.1, "ride": 29, "cost": 2219, "seq": [{"name": "Lakshmipuram", "lat": 10.207901, "lng": 77.806315, "hc": 1}, {"name": "Chellampatti", "lat": 10.195109, "lng": 77.794374, "hc": 7}, {"name": "Lakshmipuram", "lat": 10.186759, "lng": 77.792319, "hc": 4}, {"name": "Muthulapuram Stop 1", "lat": 10.181897, "lng": 77.788763, "hc": 3}, {"name": "Muthulapuram Stop 2", "lat": 10.179628, "lng": 77.78873, "hc": 5}, {"name": "Poosaripatti 5", "lat": 10.173408, "lng": 77.79866, "hc": 6}, {"name": "Poosaripatti 4", "lat": 10.171709, "lng": 77.798032, "hc": 11}, {"name": "Poorasipatti Junction", "lat": 10.175053, "lng": 77.80032, "hc": 1}, {"name": "Meenacipurma", "lat": 10.171118, "lng": 77.804098, "hc": 1}, {"name": "Poosaripatti 2", "lat": 10.167978, "lng": 77.804026, "hc": 6}, {"name": "Elanir Kadai Stop", "lat": 10.166558, "lng": 77.795791, "hc": 2}, {"name": "Poosaripatti 1", "lat": 10.169304, "lng": 77.796445, "hc": 6}, {"name": "Kurumpapatti 2nd Stop", "lat": 10.15692, "lng": 77.794748, "hc": 3}]}, {"name": "TN57CF3636", "type": "own", "cap": 55, "stops": 12, "riders": 54, "km": 46.9, "km_to_farthest": 22.7, "km_to_last": 17.9, "ride": 37, "cost": 2683, "seq": [{"name": "Senkulathupatti", "lat": 10.152158, "lng": 77.677811, "hc": 3}, {"name": "Senkulathupatti", "lat": 10.150477, "lng": 77.672623, "hc": 6}, {"name": "Perumalkovilpatti", "lat": 10.14493, "lng": 77.668745, "hc": 1}, {"name": "Saanthalkovilpatti", "lat": 10.145352, "lng": 77.665111, "hc": 3}, {"name": "Sathavu Kovil Patti", "lat": 10.148563, "lng": 77.664931, "hc": 5}, {"name": "Attanampatti", "lat": 10.148263, "lng": 77.649888, "hc": 13}, {"name": "Apsara Colony Attanampatti", "lat": 10.147745, "lng": 77.648409, "hc": 6}, {"name": "Devathanapatti Theatre", "lat": 10.14699, "lng": 77.646724, "hc": 2}, {"name": "Devathanapatti Medical Stop", "lat": 10.146188, "lng": 77.643679, "hc": 23}, {"name": "Devathanapatti Police Station", "lat": 10.146328, "lng": 77.641996, "hc": 15}, {"name": "Devathanapatti 2", "lat": 10.146011, "lng": 77.638479, "hc": 2}, {"name": "Devathanapatti 1", "lat": 10.145282, "lng": 77.635668, "hc": 1}]}, {"name": "TN58BL3636", "type": "own", "cap": 54, "stops": 12, "riders": 47, "km": 38.9, "km_to_farthest": 18.0, "km_to_last": 8.0, "ride": 39, "cost": 2540, "seq": [{"name": "Bathalagundu 1", "lat": 10.163197, "lng": 77.756903, "hc": 16}, {"name": "Old Batlagundu", "lat": 10.155062, "lng": 77.739082, "hc": 8}, {"name": "Kottappatti 1", "lat": 10.15441, "lng": 77.737473, "hc": 3}, {"name": "Kamatchipuram 2", "lat": 10.154868, "lng": 77.731538, "hc": 4}, {"name": "Palappatti 3", "lat": 10.156418, "lng": 77.728462, "hc": 1}, {"name": "Palappatti 2", "lat": 10.156868, "lng": 77.726857, "hc": 3}, {"name": "Katroad Check Post", "lat": 10.155843, "lng": 77.697365, "hc": 1}, {"name": "Katroad", "lat": 10.15531, "lng": 77.694103, "hc": 4}, {"name": "Pusparani Nagar", "lat": 10.168573, "lng": 77.69149, "hc": 1}, {"name": "Genguvarpatti Perumal Kovil", "lat": 10.166503, "lng": 77.694365, "hc": 1}, {"name": "Genguvarpatti", "lat": 10.168253, "lng": 77.694673, "hc": 15}, {"name": "Genguvarpatti Mahal Stop", "lat": 10.16918, "lng": 77.6949, "hc": 8}]}, {"name": "TN60AQ3434", "type": "own", "cap": 55, "stops": 12, "riders": 56, "km": 59.8, "km_to_farthest": 26.3, "km_to_last": 16.8, "ride": 63, "cost": 2916, "seq": [{"name": "Agrakarapatti", "lat": 10.148755, "lng": 77.857302, "hc": 12}, {"name": "Kurumpapatti 1", "lat": 10.145262, "lng": 77.859878, "hc": 5}, {"name": "Pillayar Natham", "lat": 10.141636, "lng": 77.86979, "hc": 1}, {"name": "E Kovilpatti 1", "lat": 10.134019, "lng": 77.881089, "hc": 11}, {"name": "Konkupatti Moolaikadai", "lat": 10.122935, "lng": 77.878311, "hc": 1}, {"name": "Etilodu", "lat": 10.118082, "lng": 77.875494, "hc": 3}, {"name": "Kongupatti", "lat": 10.118237, "lng": 77.878389, "hc": 1}, {"name": "Avarampatti 3", "lat": 10.110335, "lng": 77.892635, "hc": 4}, {"name": "Avarampatti 2", "lat": 10.109578, "lng": 77.89324, "hc": 10}, {"name": "Karuthandipatti", "lat": 10.102873, "lng": 77.889589, "hc": 11}, {"name": "Vilampatti", "lat": 10.093659, "lng": 77.878501, "hc": 5}, {"name": "Vilamapatti 1", "lat": 10.092481, "lng": 77.87978, "hc": 16}]}, {"name": "TN57BQ3636", "type": "own", "cap": 42, "stops": 12, "riders": 39, "km": 36.9, "km_to_farthest": 13.8, "km_to_last": 8.9, "ride": 37, "cost": 2503, "seq": [{"name": "Palayankottai", "lat": 10.260994, "lng": 77.853204, "hc": 8}, {"name": "Palankottai", "lat": 10.26073, "lng": 77.855669, "hc": 10}, {"name": "Piravanpatti", "lat": 10.258844, "lng": 77.856257, "hc": 3}, {"name": "Kamanpatti 1st Stop", "lat": 10.257149, "lng": 77.860854, "hc": 2}, {"name": "Koolampatti", "lat": 10.269296, "lng": 77.86414, "hc": 2}, {"name": "Palayankottai", "lat": 10.266723, "lng": 77.855082, "hc": 2}, {"name": "Koolampatti", "lat": 10.268348, "lng": 77.862838, "hc": 1}, {"name": "Sempatti", "lat": 10.281094, "lng": 77.871105, "hc": 1}, {"name": "Kethanampatti", "lat": 10.277621, "lng": 77.873319, "hc": 5}, {"name": "Sembatti 2", "lat": 10.279804, "lng": 77.870244, "hc": 7}, {"name": "Sempatti 2", "lat": 10.276798, "lng": 77.868643, "hc": 2}, {"name": "Kodanginayakanpatti", "lat": 10.287762, "lng": 77.870278, "hc": 12}]}, {"name": "TN57CC3636", "type": "own", "cap": 50, "stops": 12, "riders": 55, "km": 71.1, "km_to_farthest": 27.4, "km_to_last": 19.1, "ride": 62, "cost": 3119, "seq": [{"name": "Dharmathupatti School", "lat": 10.341345, "lng": 77.848312, "hc": 1}, {"name": "Dharmathupatti 2", "lat": 10.343798, "lng": 77.848047, "hc": 9}, {"name": "Dharmathupatti", "lat": 10.352976, "lng": 77.846365, "hc": 22}, {"name": "Kurumpapatti", "lat": 10.35765, "lng": 77.852755, "hc": 1}, {"name": "Karisalpatti", "lat": 10.359099, "lng": 77.853381, "hc": 4}, {"name": "Kasavanampatti", "lat": 10.362169, "lng": 77.870796, "hc": 8}, {"name": "Vellampatti", "lat": 10.361722, "lng": 77.883289, "hc": 1}, {"name": "Konur", "lat": 10.377739, "lng": 77.876892, "hc": 10}, {"name": "Thippampatti", "lat": 10.37813, "lng": 77.874103, "hc": 9}, {"name": "Pappankulam", "lat": 10.37635, "lng": 77.863057, "hc": 1}, {"name": "Kannivadi", "lat": 10.377456, "lng": 77.83196, "hc": 7}, {"name": "Thethupatti", "lat": 10.397232, "lng": 77.823791, "hc": 4}]}, {"name": "TN57CB3434", "type": "own", "cap": 55, "stops": 11, "riders": 36, "km": 45.4, "km_to_farthest": 15.6, "km_to_last": 15.4, "ride": 42, "cost": 2655, "seq": [{"name": "J.Puthukottai", "lat": 10.289651, "lng": 77.893767, "hc": 5}, {"name": "Anjugam Colony 2", "lat": 10.290142, "lng": 77.901921, "hc": 6}, {"name": "Anjugam Colony", "lat": 10.289677, "lng": 77.904843, "hc": 2}, {"name": "Devangar Girls School", "lat": 10.289159, "lng": 77.910838, "hc": 3}, {"name": "Sevasangam", "lat": 10.287469, "lng": 77.913158, "hc": 7}, {"name": "Royal Theatre", "lat": 10.285508, "lng": 77.914808, "hc": 3}, {"name": "Balaji Jewellary", "lat": 10.283818, "lng": 77.917582, "hc": 9}, {"name": "Harish Hospital", "lat": 10.281825, "lng": 77.920702, "hc": 4}, {"name": "Gandhigramam", "lat": 10.280646, "lng": 77.921806, "hc": 1}, {"name": "Gandhigram Pirivu", "lat": 10.274048, "lng": 77.91168, "hc": 9}, {"name": "Nadupatti", "lat": 10.274798, "lng": 77.89975, "hc": 3}]}, {"name": "TN58BR3434", "type": "own", "cap": 55, "stops": 11, "riders": 57, "km": 32.4, "km_to_farthest": 18.6, "km_to_last": 10.4, "ride": 32, "cost": 2422, "seq": [{"name": "Kanavaipatti Asaramam", "lat": 10.183502, "lng": 77.739225, "hc": 5}, {"name": "Kanavaipatti Bus Stand", "lat": 10.185393, "lng": 77.735345, "hc": 4}, {"name": "T.methur", "lat": 10.185117, "lng": 77.72486, "hc": 3}, {"name": "G.thumalapatti 2", "lat": 10.185402, "lng": 77.720422, "hc": 2}, {"name": "G.thumalapatti", "lat": 10.185532, "lng": 77.71383, "hc": 1}, {"name": "Thumalapatti Kovil", "lat": 10.185465, "lng": 77.711623, "hc": 1}, {"name": "G.kallupatti 5", "lat": 10.180848, "lng": 77.707708, "hc": 1}, {"name": "Kallupatti Pettai Stop", "lat": 10.179048, "lng": 77.703048, "hc": 28}, {"name": "Kallupatti Veeramangalam Stop", "lat": 10.176217, "lng": 77.702817, "hc": 17}, {"name": "Genguvarpatti 5", "lat": 10.171598, "lng": 77.69957, "hc": 5}, {"name": "Genguvarpatti Suresh Theatre", "lat": 10.171089, "lng": 77.698627, "hc": 14}]}, {"name": "TN57BC3636", "type": "own", "cap": 50, "stops": 10, "riders": 28, "km": 30.5, "km_to_farthest": 17.5, "km_to_last": 9.8, "ride": 35, "cost": 2389, "seq": [{"name": "Apalapatti", "lat": 10.178264, "lng": 77.847269, "hc": 6}, {"name": "Ration Kadi Nilkottai Stop 2", "lat": 10.169897, "lng": 77.850578, "hc": 7}, {"name": "Mariamman Kovil Stop", "lat": 10.167942, "lng": 77.850035, "hc": 3}, {"name": "Nilakottai 2", "lat": 10.165444, "lng": 77.849282, "hc": 8}, {"name": "Nilakottai Union Office", "lat": 10.160952, "lng": 77.853023, "hc": 4}, {"name": "Nilakottai", "lat": 10.158495, "lng": 77.852935, "hc": 1}, {"name": "Nilakottai Kottai", "lat": 10.156867, "lng": 77.852307, "hc": 1}, {"name": "Pillip Nagar", "lat": 10.15671, "lng": 77.858148, "hc": 3}, {"name": "Valankottai", "lat": 10.153077, "lng": 77.864075, "hc": 4}, {"name": "Kurumbapatti", "lat": 10.148885, "lng": 77.867655, "hc": 2}]}, {"name": "TN57BS3434", "type": "own", "cap": 55, "stops": 10, "riders": 57, "km": 69.6, "km_to_farthest": 34.6, "km_to_last": 22.0, "ride": 61, "cost": 3092, "seq": [{"name": "Kowndanpatti Colany", "lat": 10.134425, "lng": 77.909678, "hc": 5}, {"name": "Kowndanpatti", "lat": 10.132603, "lng": 77.910918, "hc": 5}, {"name": "Palapatti 3", "lat": 10.137917, "lng": 77.910162, "hc": 7}, {"name": "Palapatti 2", "lat": 10.138097, "lng": 77.911993, "hc": 10}, {"name": "Pallapatti 1", "lat": 10.137673, "lng": 77.913512, "hc": 4}, {"name": "Karathupatti", "lat": 10.08494, "lng": 77.931643, "hc": 2}, {"name": "Karupatti Balakrisnapuram 1", "lat": 10.055942, "lng": 77.932852, "hc": 22}, {"name": "Chinna Irumpadi", "lat": 10.049453, "lng": 77.934842, "hc": 6}, {"name": "Irumpadi 2", "lat": 10.047545, "lng": 77.93506, "hc": 10}, {"name": "Irumpadi 1", "lat": 10.045783, "lng": 77.93512, "hc": 2}]}, {"name": "TN57CD3434", "type": "own", "cap": 55, "stops": 10, "riders": 48, "km": 29.9, "km_to_farthest": 12.5, "km_to_last": 4.6, "ride": 33, "cost": 2378, "seq": [{"name": "Mariyaipatti", "lat": 10.182871, "lng": 77.779716, "hc": 1}, {"name": "Bathalagundu 2", "lat": 10.165972, "lng": 77.760297, "hc": 10}, {"name": "Bathalagundu 3", "lat": 10.167609, "lng": 77.763007, "hc": 7}, {"name": "Union Office", "lat": 10.162959, "lng": 77.765467, "hc": 3}, {"name": "Btl Puthupatti", "lat": 10.16961, "lng": 77.747055, "hc": 3}, {"name": "Btl Puthupatti 2", "lat": 10.168433, "lng": 77.748472, "hc": 6}, {"name": "Btl Puthupatti 3", "lat": 10.165615, "lng": 77.75116, "hc": 10}, {"name": "Old Btl 2", "lat": 10.158006, "lng": 77.742667, "hc": 11}, {"name": "Old Btl 1", "lat": 10.156133, "lng": 77.742488, "hc": 6}, {"name": "Old Btl 3", "lat": 10.153582, "lng": 77.74237, "hc": 12}]}, {"name": "TN57CL3434", "type": "own", "cap": 54, "stops": 10, "riders": 48, "km": 44.4, "km_to_farthest": 21.2, "km_to_last": 12.9, "ride": 38, "cost": 2639, "seq": [{"name": "Old Btl 2", "lat": 10.152485, "lng": 77.739951, "hc": 7}, {"name": "Kurumbapatti", "lat": 10.149844, "lng": 77.739865, "hc": 14}, {"name": "Kanimarkovilpatti Junction", "lat": 10.122957, "lng": 77.727855, "hc": 5}, {"name": "Utchapatti 2", "lat": 10.12347, "lng": 77.715212, "hc": 2}, {"name": "Utchapatti", "lat": 10.125165, "lng": 77.713977, "hc": 6}, {"name": "Veriyapanayakanpatti 3", "lat": 10.126152, "lng": 77.711495, "hc": 1}, {"name": "Veriyapanayakanpatti 2", "lat": 10.126427, "lng": 77.704968, "hc": 6}, {"name": "Veriyapanayakanpatti", "lat": 10.126893, "lng": 77.702705, "hc": 1}, {"name": "Eluvanampatti 3", "lat": 10.129255, "lng": 77.682237, "hc": 15}, {"name": "Eluvanampatti 2", "lat": 10.131465, "lng": 77.682148, "hc": 11}]}, {"name": "TN57BQ3434", "type": "own", "cap": 55, "stops": 10, "riders": 38, "km": 35.1, "km_to_farthest": 10.6, "km_to_last": 3.9, "ride": 41, "cost": 2471, "seq": [{"name": "Thumalapatti Stop 2", "lat": 10.199522, "lng": 77.815429, "hc": 15}, {"name": "Viralipatti", "lat": 10.191442, "lng": 77.825478, "hc": 11}, {"name": "Thambinayankanpatti", "lat": 10.183787, "lng": 77.835015, "hc": 3}, {"name": "Nilakottai", "lat": 10.164898, "lng": 77.852417, "hc": 7}, {"name": "Konkarkulam Stop 2", "lat": 10.167208, "lng": 77.856612, "hc": 8}, {"name": "Nilakottai Gh", "lat": 10.172452, "lng": 77.857493, "hc": 2}, {"name": "Nilkottai Gh Stop 2", "lat": 10.170147, "lng": 77.857208, "hc": 5}, {"name": "Manikaranpatti", "lat": 10.167138, "lng": 77.835988, "hc": 1}, {"name": "Maniyakaranpatti", "lat": 10.167361, "lng": 77.834121, "hc": 2}, {"name": "Bangalapatti", "lat": 10.168109, "lng": 77.819072, "hc": 3}]}, {"name": "TN57CA3636", "type": "own", "cap": 50, "stops": 10, "riders": 39, "km": 44.1, "km_to_farthest": 18.8, "km_to_last": 14.1, "ride": 44, "cost": 2633, "seq": [{"name": "Kannapatti Stop 2", "lat": 10.1086, "lng": 77.775715, "hc": 4}, {"name": "Kannapatti", "lat": 10.104881, "lng": 77.77714, "hc": 19}, {"name": "Sekapatti", "lat": 10.103043, "lng": 77.778432, "hc": 6}, {"name": "Semmuthupatti 3", "lat": 10.093574, "lng": 77.768002, "hc": 1}, {"name": "Semmethupatti 2", "lat": 10.089152, "lng": 77.766518, "hc": 9}, {"name": "Keelachampatti 2", "lat": 10.084473, "lng": 77.767911, "hc": 6}, {"name": "Keelachampatti 1", "lat": 10.08156, "lng": 77.770777, "hc": 3}, {"name": "Viruveedu", "lat": 10.080043, "lng": 77.781888, "hc": 2}, {"name": "Veeruvedu 1", "lat": 10.078367, "lng": 77.782, "hc": 5}, {"name": "Dharmathupatti", "lat": 10.069728, "lng": 77.781192, "hc": 2}]}, {"name": "TN58BL3434", "type": "own", "cap": 55, "stops": 9, "riders": 56, "km": 50.5, "km_to_farthest": 24.2, "km_to_last": 18.4, "ride": 48, "cost": 2748, "seq": [{"name": "Viralipatti 2", "lat": 10.107956, "lng": 77.72454, "hc": 16}, {"name": "Viralipatti 1", "lat": 10.10641, "lng": 77.726732, "hc": 14}, {"name": "Viralipatti Bunk", "lat": 10.104453, "lng": 77.726419, "hc": 7}, {"name": "Ramanayakanpatti 2", "lat": 10.088923, "lng": 77.723747, "hc": 1}, {"name": "Ramanayakanpatti 1", "lat": 10.086957, "lng": 77.72454, "hc": 9}, {"name": "Rengappanayyakkanpatti", "lat": 10.085438, "lng": 77.726358, "hc": 11}, {"name": "Sevaranpatti Junction", "lat": 10.087848, "lng": 77.727861, "hc": 6}, {"name": "Servaranpatti", "lat": 10.088172, "lng": 77.732203, "hc": 9}, {"name": "Kunathupatti 4", "lat": 10.071995, "lng": 77.71605, "hc": 4}]}, {"name": "TN57CJ3636", "type": "own", "cap": 55, "stops": 4, "riders": 30, "km": 47.3, "km_to_farthest": 26.9, "km_to_last": 18.1, "ride": 38, "cost": 2690, "seq": [{"name": "Viralipatti 4", "lat": 10.109745, "lng": 77.726162, "hc": 23}, {"name": "Viralipatti 1", "lat": 10.108336, "lng": 77.721728, "hc": 6}, {"name": "Karupanmoopanpatti", "lat": 10.107878, "lng": 77.710588, "hc": 4}, {"name": "A.Vadipatti 2", "lat": 10.087804, "lng": 77.690687, "hc": 9}]}, {"name": "TN58BM3434", "type": "own", "cap": 55, "stops": 4, "riders": 41, "km": 16.0, "km_to_farthest": 5.5, "km_to_last": 3.3, "ride": 18, "cost": 2127, "seq": [{"name": "Sangareddykottai", "lat": 10.209585, "lng": 77.790108, "hc": 30}, {"name": "Ayyankottai Colony", "lat": 10.207963, "lng": 77.778218, "hc": 8}, {"name": "Ayyankottai Puthur", "lat": 10.210815, "lng": 77.773652, "hc": 12}, {"name": "Ayyankottai 2", "lat": 10.213029, "lng": 77.766918, "hc": 7}]}, {"name": "TN20AU6396", "type": "rent", "cap": 15, "stops": 12, "riders": 19, "km": 85.9, "km_to_farthest": 39.2, "km_to_last": 25.8, "ride": 72, "cost": 1900, "seq": [{"name": "R.V.Nagar 3", "lat": 10.35927, "lng": 77.965467, "hc": 4}, {"name": "Vijay Theatre", "lat": 10.350372, "lng": 77.984147, "hc": 1}, {"name": "Mariyanathapuram", "lat": 10.349173, "lng": 77.990235, "hc": 5}, {"name": "Kaattumadam", "lat": 10.348991, "lng": 78.00028, "hc": 3}, {"name": "Subburam Pattarai", "lat": 10.349152, "lng": 77.997605, "hc": 2}, {"name": "Nallampatti Junction", "lat": 10.343208, "lng": 77.991337, "hc": 1}, {"name": "Valakaipatti Junction", "lat": 10.331968, "lng": 77.999945, "hc": 1}, {"name": "Sirumalai Junction", "lat": 10.325998, "lng": 78.004898, "hc": 2}, {"name": "Reddiyapatti", "lat": 10.3237, "lng": 78.007778, "hc": 2}, {"name": "Nochiodaipatti", "lat": 10.305382, "lng": 78.027842, "hc": 2}, {"name": "Kottaipatti Rice Mill", "lat": 10.30083, "lng": 78.03059, "hc": 1}, {"name": "Thavasimadai", "lat": 10.277917, "lng": 78.04348, "hc": 3}]}, {"name": "TN31AB3789", "type": "rent", "cap": 15, "stops": 12, "riders": 19, "km": 109.1, "km_to_farthest": 48.7, "km_to_last": 36.3, "ride": 87, "cost": 2041, "seq": [{"name": "Jeminipatti", "lat": 10.050482, "lng": 77.988162, "hc": 3}, {"name": "Sembukuttipatti", "lat": 10.046345, "lng": 78.011827, "hc": 1}, {"name": "Ellapatti", "lat": 10.047185, "lng": 78.036785, "hc": 2}, {"name": "Kovilur", "lat": 10.067193, "lng": 78.0538, "hc": 1}, {"name": "Kuttymekkanpatti", "lat": 10.064443, "lng": 78.056753, "hc": 1}, {"name": "Alazhapuri", "lat": 10.058143, "lng": 78.068435, "hc": 1}, {"name": "Kelavikulam", "lat": 10.050775, "lng": 78.07109, "hc": 1}, {"name": "Gandhigram", "lat": 10.045906, "lng": 78.078104, "hc": 3}, {"name": "Alanganallur 2", "lat": 10.045905, "lng": 78.084352, "hc": 5}, {"name": "Gate Kadai 2", "lat": 10.04613, "lng": 78.087028, "hc": 1}, {"name": "Gate Kadai", "lat": 10.046607, "lng": 78.094957, "hc": 1}, {"name": "Valasai", "lat": 10.043652, "lng": 78.095028, "hc": 2}]}, {"name": "TN31CD6636", "type": "rent", "cap": 15, "stops": 12, "riders": 20, "km": 72.2, "km_to_farthest": 33.6, "km_to_last": 13.8, "ride": 63, "cost": 1700, "seq": [{"name": "Aathilakshmipuram 2", "lat": 10.295236, "lng": 77.881337, "hc": 1}, {"name": "Aathilakshmipuram 1", "lat": 10.296912, "lng": 77.881837, "hc": 3}, {"name": "Panjampatti", "lat": 10.320955, "lng": 77.923592, "hc": 2}, {"name": "Pithalipatti Junction", "lat": 10.334552, "lng": 77.932587, "hc": 1}, {"name": "Ap Nagar Stop 2", "lat": 10.35143, "lng": 77.955943, "hc": 6}, {"name": "Begampur Rasi Bunk", "lat": 10.354785, "lng": 77.961917, "hc": 1}, {"name": "Yannai Thepam", "lat": 10.356535, "lng": 77.96685, "hc": 4}, {"name": "YMR Patti", "lat": 10.363242, "lng": 77.982103, "hc": 1}, {"name": "Round Road", "lat": 10.363487, "lng": 77.991113, "hc": 1}, {"name": "Uthanampatti", "lat": 10.357873, "lng": 78.010887, "hc": 2}, {"name": "Airport Nagar", "lat": 10.35997, "lng": 78.019434, "hc": 5}, {"name": "Kalathupatti", "lat": 10.368105, "lng": 78.025682, "hc": 2}]}, {"name": "TN31J6001", "type": "rent", "cap": 15, "stops": 12, "riders": 20, "km": 83.8, "km_to_farthest": 26.9, "km_to_last": 23.0, "ride": 71, "cost": 1900, "seq": [{"name": "Kalikkampatti", "lat": 10.303358, "lng": 77.92835, "hc": 5}, {"name": "Township Nagar", "lat": 10.304131, "lng": 77.925005, "hc": 3}, {"name": "Pillayarnatham Pirivu", "lat": 10.303318, "lng": 77.942068, "hc": 3}, {"name": "Thomayarpuram", "lat": 10.324405, "lng": 77.952633, "hc": 2}, {"name": "Vellode", "lat": 10.305702, "lng": 77.954055, "hc": 5}, {"name": "Kannarpatti", "lat": 10.321294, "lng": 77.985423, "hc": 2}, {"name": "Thandalkaranpatti", "lat": 10.321558, "lng": 77.97712, "hc": 2}, {"name": "Yagappanpatti", "lat": 10.332212, "lng": 77.977996, "hc": 2}, {"name": "Othakkanpalam", "lat": 10.341404, "lng": 77.977964, "hc": 1}, {"name": "Bharathupuram", "lat": 10.343189, "lng": 77.978449, "hc": 1}, {"name": "Vedapatti", "lat": 10.348895, "lng": 77.978745, "hc": 2}, {"name": "Mottanampatti", "lat": 10.35071, "lng": 77.975427, "hc": 3}]}, {"name": "TN32AA4015", "type": "rent", "cap": 15, "stops": 12, "riders": 20, "km": 108.8, "km_to_farthest": 42.0, "km_to_last": 16.8, "ride": 93, "cost": 2034, "seq": [{"name": "Ramanathapuram", "lat": 10.322265, "lng": 77.854718, "hc": 4}, {"name": "Paraipatti", "lat": 10.313013, "lng": 77.86094, "hc": 5}, {"name": "Dharmathupatti 1", "lat": 10.346113, "lng": 77.84763, "hc": 3}, {"name": "Pannaipatti", "lat": 10.412123, "lng": 77.815533, "hc": 3}, {"name": "Pannaipatti 2", "lat": 10.404475, "lng": 77.816311, "hc": 1}, {"name": "Sriramapuram 2", "lat": 10.430739, "lng": 77.809923, "hc": 1}, {"name": "Thirumalairayapuram", "lat": 10.438485, "lng": 77.802862, "hc": 3}, {"name": "Sriramapuram", "lat": 10.434324, "lng": 77.806385, "hc": 1}, {"name": "Kumarapalayam", "lat": 10.441864, "lng": 77.801706, "hc": 1}, {"name": "Ottanchathiram Market", "lat": 10.488778, "lng": 77.754526, "hc": 1}, {"name": "Ottanchathiram Bus Stand", "lat": 10.48714, "lng": 77.749406, "hc": 3}, {"name": "Dharapuram Railway Junction", "lat": 10.485528, "lng": 77.74609, "hc": 2}]}, {"name": "TN39AZ4680", "type": "rent", "cap": 15, "stops": 11, "riders": 20, "km": 89.1, "km_to_farthest": 44.2, "km_to_last": 18.6, "ride": 84, "cost": 1900, "seq": [{"name": "Musuvanuthu Colony", "lat": 10.12851, "lng": 77.846292, "hc": 3}, {"name": "Vilampatti Pirivu", "lat": 10.095813, "lng": 77.853498, "hc": 4}, {"name": "Sithayipuram 2", "lat": 10.077323, "lng": 77.875708, "hc": 1}, {"name": "Sithayipuram", "lat": 10.071913, "lng": 77.885497, "hc": 2}, {"name": "Ayyapanayakanpatti", "lat": 10.053272, "lng": 77.908049, "hc": 4}, {"name": "Joseph School", "lat": 10.001722, "lng": 77.928287, "hc": 2}, {"name": "Naduvur", "lat": 9.996997, "lng": 77.924613, "hc": 3}, {"name": "Kalpulichampatti", "lat": 9.997923, "lng": 77.921258, "hc": 3}, {"name": "Kodikulam Colony", "lat": 9.970862, "lng": 77.909499, "hc": 1}, {"name": "Kodikulam", "lat": 9.972885, "lng": 77.907592, "hc": 1}, {"name": "Andipatti", "lat": 9.97367, "lng": 77.905854, "hc": 5}]}, {"name": "TN41S5818", "type": "rent", "cap": 15, "stops": 11, "riders": 20, "km": 106.0, "km_to_farthest": 35.4, "km_to_last": 33.3, "ride": 89, "cost": 1982, "seq": [{"name": "Madharai 1", "lat": 9.968717, "lng": 77.770493, "hc": 3}, {"name": "Poochipatti", "lat": 9.970208, "lng": 77.745337, "hc": 3}, {"name": "Dodapanayakunnur", "lat": 9.973735, "lng": 77.734893, "hc": 2}, {"name": "Chettiyapatti", "lat": 9.977473, "lng": 77.71438, "hc": 5}, {"name": "Kozijampatti", "lat": 9.96905, "lng": 77.749947, "hc": 2}, {"name": "Nallampatti", "lat": 9.968677, "lng": 77.756457, "hc": 6}, {"name": "Madharai 2", "lat": 9.968408, "lng": 77.775398, "hc": 1}, {"name": "Usilampatti 1", "lat": 9.967797, "lng": 77.78144, "hc": 2}, {"name": "Usilampatti New Bus Stand", "lat": 9.966312, "lng": 77.786012, "hc": 1}, {"name": "Villani", "lat": 9.951449, "lng": 77.777904, "hc": 3}, {"name": "Perumalpatti", "lat": 9.946468, "lng": 77.772513, "hc": 3}]}, {"name": "TN41W8996", "type": "rent", "cap": 15, "stops": 11, "riders": 20, "km": 95.6, "km_to_farthest": 37.6, "km_to_last": 22.8, "ride": 79, "cost": 1900, "seq": [{"name": "Ponnmanthurai", "lat": 10.344347, "lng": 77.925039, "hc": 1}, {"name": "Kottaipatti", "lat": 10.358289, "lng": 77.933063, "hc": 2}, {"name": "Paraipatti", "lat": 10.357129, "lng": 77.936572, "hc": 6}, {"name": "Pithalaipatti", "lat": 10.385045, "lng": 77.964608, "hc": 2}, {"name": "Rajakkapatti", "lat": 10.38808, "lng": 78.014297, "hc": 1}, {"name": "E.b Colony", "lat": 10.38317, "lng": 78.021741, "hc": 3}, {"name": "Seelapadi Bypass", "lat": 10.382368, "lng": 78.029097, "hc": 1}, {"name": "Kodangipatti", "lat": 10.385128, "lng": 78.046505, "hc": 2}, {"name": "Periyakkottai 1", "lat": 10.376581, "lng": 78.049178, "hc": 4}, {"name": "Periyakkottai", "lat": 10.374156, "lng": 78.049596, "hc": 5}, {"name": "Pannaipatti Pirivu", "lat": 10.344368, "lng": 78.058113, "hc": 1}]}, {"name": "TN45AP3948", "type": "rent", "cap": 15, "stops": 11, "riders": 19, "km": 77.6, "km_to_farthest": 36.9, "km_to_last": 19.8, "ride": 65, "cost": 1700, "seq": [{"name": "Murugathuranpatti", "lat": 10.142529, "lng": 77.89511, "hc": 5}, {"name": "Palapatti 1", "lat": 10.135343, "lng": 77.915507, "hc": 4}, {"name": "Nachikulam 3", "lat": 10.066112, "lng": 77.940018, "hc": 2}, {"name": "Nachikulam 2", "lat": 10.063482, "lng": 77.941138, "hc": 1}, {"name": "Nachikulam 1", "lat": 10.060752, "lng": 77.94362, "hc": 2}, {"name": "Sholavanthan Pettai", "lat": 10.025938, "lng": 77.957147, "hc": 3}, {"name": "Thenkarai", "lat": 10.019717, "lng": 77.95526, "hc": 2}, {"name": "Thenkarai 2", "lat": 10.019423, "lng": 77.953555, "hc": 1}, {"name": "Mullipallam 1", "lat": 10.020972, "lng": 77.95307, "hc": 1}, {"name": "Mullipallam 3", "lat": 10.024083, "lng": 77.951852, "hc": 2}, {"name": "Pathaneer Kadai Pirivu", "lat": 10.028335, "lng": 77.945807, "hc": 2}]}, {"name": "TN63E9861", "type": "rent", "cap": 15, "stops": 11, "riders": 20, "km": 96.3, "km_to_farthest": 34.4, "km_to_last": 25.2, "ride": 65, "cost": 1900, "seq": [{"name": "Kodai Road Toll Gate Bye Pass", "lat": 10.183249, "lng": 77.911792, "hc": 2}, {"name": "Sanaampaati Railwaygate", "lat": 10.1099, "lng": 77.937963, "hc": 1}, {"name": "Sanaampatti", "lat": 10.104483, "lng": 77.944272, "hc": 3}, {"name": "Vadipatti Nursary", "lat": 10.088462, "lng": 77.95595, "hc": 1}, {"name": "Vadipatti Matha Kovil", "lat": 10.08534, "lng": 77.959582, "hc": 1}, {"name": "Vadipatti Bus Stand", "lat": 10.081962, "lng": 77.967193, "hc": 8}, {"name": "Vadipatti Thai School", "lat": 10.080562, "lng": 77.968343, "hc": 2}, {"name": "Vadipatti Old Taluk Office", "lat": 10.079612, "lng": 77.970008, "hc": 1}, {"name": "Sholavanthan Pirivu", "lat": 10.062675, "lng": 77.981615, "hc": 1}, {"name": "Andipatti", "lat": 10.059337, "lng": 77.985932, "hc": 1}, {"name": "Kulasekarankottai", "lat": 10.094703, "lng": 77.984475, "hc": 4}]}, {"name": "TN030857", "type": "rent", "cap": 15, "stops": 10, "riders": 18, "km": 114.1, "km_to_farthest": 53.1, "km_to_last": 37.6, "ride": 90, "cost": 2134, "seq": [{"name": "Viralipatti", "lat": 10.290565, "lng": 78.046605, "hc": 1}, {"name": "Kosavapatti", "lat": 10.28619, "lng": 78.063433, "hc": 1}, {"name": "Sanarpatti Pertol Bunk", "lat": 10.275127, "lng": 78.079978, "hc": 1}, {"name": "Thalayarpatti", "lat": 10.265357, "lng": 78.136113, "hc": 7}, {"name": "V.Pudur", "lat": 10.269058, "lng": 78.140987, "hc": 5}, {"name": "Paraipatti", "lat": 10.272547, "lng": 78.127718, "hc": 1}, {"name": "Pallpatti", "lat": 10.276968, "lng": 78.133687, "hc": 5}, {"name": "Manikaranpatti", "lat": 10.299741, "lng": 78.13602, "hc": 1}, {"name": "Pudhur Junction", "lat": 10.306706, "lng": 78.138547, "hc": 1}, {"name": "Silvarpatti Stop 2", "lat": 10.308452, "lng": 78.139498, "hc": 2}]}, {"name": "TN25M4073", "type": "rent", "cap": 15, "stops": 10, "riders": 20, "km": 67.6, "km_to_farthest": 21.0, "km_to_last": 13.1, "ride": 54, "cost": 1700, "seq": [{"name": "Samathuvapuram", "lat": 10.289166, "lng": 77.879404, "hc": 2}, {"name": "Suthanakiyapuram", "lat": 10.301448, "lng": 77.886403, "hc": 1}, {"name": "Vakkampatti", "lat": 10.320845, "lng": 77.90771, "hc": 6}, {"name": "Aariyanallur", "lat": 10.318443, "lng": 77.91585, "hc": 4}, {"name": "Pajampatti Junction", "lat": 10.326275, "lng": 77.918263, "hc": 3}, {"name": "Pithalaipatti", "lat": 10.337132, "lng": 77.927168, "hc": 2}, {"name": "Alavachipatti", "lat": 10.351515, "lng": 77.898396, "hc": 3}, {"name": "Karisalpatti 1", "lat": 10.35325, "lng": 77.859108, "hc": 5}, {"name": "Karisalpatti 2", "lat": 10.353128, "lng": 77.85613, "hc": 1}, {"name": "Old Kanivadi", "lat": 10.354177, "lng": 77.851507, "hc": 3}]}, {"name": "TN25M4928", "type": "rent", "cap": 15, "stops": 10, "riders": 20, "km": 99.6, "km_to_farthest": 37.7, "km_to_last": 23.7, "ride": 80, "cost": 1900, "seq": [{"name": "Kasavanampatti 3", "lat": 10.369319, "lng": 77.869121, "hc": 2}, {"name": "Kasavanampatti 1", "lat": 10.371443, "lng": 77.872182, "hc": 3}, {"name": "Muthanampatti", "lat": 10.407003, "lng": 77.910749, "hc": 1}, {"name": "Mangarai", "lat": 10.395435, "lng": 77.866717, "hc": 7}, {"name": "Sevanakkarayanpatti", "lat": 10.402698, "lng": 77.853573, "hc": 4}, {"name": "Puthuppatti", "lat": 10.422048, "lng": 77.86079, "hc": 3}, {"name": "Reddyyapatti", "lat": 10.429798, "lng": 77.867928, "hc": 3}, {"name": "Ellappatti", "lat": 10.428802, "lng": 77.844135, "hc": 3}, {"name": "Samathuvapuram", "lat": 10.433912, "lng": 77.845312, "hc": 2}, {"name": "Kappiliyapatti", "lat": 10.448063, "lng": 77.8408, "hc": 1}]}, {"name": "TN58S5303", "type": "rent", "cap": 15, "stops": 10, "riders": 20, "km": 91.8, "km_to_farthest": 32.6, "km_to_last": 26.5, "ride": 65, "cost": 1900, "seq": [{"name": "Vakkampatti", "lat": 10.356207, "lng": 77.951953, "hc": 2}, {"name": "Dindigul Silapadi Bye Pass", "lat": 10.379053, "lng": 78.000339, "hc": 5}, {"name": "Dindigul Ulavar Santai", "lat": 10.374757, "lng": 77.993091, "hc": 2}, {"name": "Dindigul Eswari Store", "lat": 10.370169, "lng": 77.983068, "hc": 1}, {"name": "Dindigul Eriuodu Road Bye Pass", "lat": 10.380649, "lng": 77.990397, "hc": 6}, {"name": "Dindigul Rajivi Nagar", "lat": 10.383948, "lng": 77.976551, "hc": 1}, {"name": "Dindigul Rajakapatti", "lat": 10.385286, "lng": 77.969523, "hc": 5}, {"name": "Periyar Nagar", "lat": 10.396167, "lng": 77.960594, "hc": 2}, {"name": "Collectorate", "lat": 10.406835, "lng": 77.959258, "hc": 5}, {"name": "Kallipatti", "lat": 10.413515, "lng": 77.969749, "hc": 1}]}, {"name": "TN58BC3494", "type": "rent", "cap": 9, "stops": 10, "riders": 14, "km": 73.5, "km_to_farthest": 19.4, "km_to_last": 12.5, "ride": 56, "cost": 1700, "seq": [{"name": "Puthukodangipatti", "lat": 10.286033, "lng": 77.875562, "hc": 3}, {"name": "Indhirapuram", "lat": 10.266727, "lng": 77.901755, "hc": 2}, {"name": "Melakkottai", "lat": 10.274358, "lng": 77.90577, "hc": 1}, {"name": "Ambathurai", "lat": 10.275839, "lng": 77.922621, "hc": 1}, {"name": "Bhella Premiuer", "lat": 10.268537, "lng": 77.916572, "hc": 1}, {"name": "Chettiyapatti Pirivu", "lat": 10.291557, "lng": 77.934933, "hc": 1}, {"name": "Township Colony", "lat": 10.28427, "lng": 77.929217, "hc": 1}, {"name": "Jathikavundanpatti", "lat": 10.259502, "lng": 77.919198, "hc": 3}, {"name": "Perumalkovilpatti", "lat": 10.257316, "lng": 77.909658, "hc": 2}, {"name": "Mettur", "lat": 10.234222, "lng": 77.905342, "hc": 5}]}, {"name": "TN41T5270", "type": "rent", "cap": 15, "stops": 9, "riders": 20, "km": 62.1, "km_to_farthest": 24.1, "km_to_last": 12.0, "ride": 50, "cost": 1700, "seq": [{"name": "Mettupatti", "lat": 10.267086, "lng": 77.875241, "hc": 8}, {"name": "Mettupatti 1st Stop", "lat": 10.268238, "lng": 77.874225, "hc": 1}, {"name": "Koolampatti Pirivu", "lat": 10.232946, "lng": 77.870446, "hc": 1}, {"name": "Koolampatti", "lat": 10.221211, "lng": 77.868974, "hc": 3}, {"name": "Sankalpatti", "lat": 10.214141, "lng": 77.873833, "hc": 1}, {"name": "Alakampatti", "lat": 10.224563, "lng": 77.888784, "hc": 1}, {"name": "Mottanampatti", "lat": 10.239418, "lng": 77.884395, "hc": 4}, {"name": "Sakkayanayakkanur", "lat": 10.23321, "lng": 77.893118, "hc": 3}, {"name": "Kolinzpatti", "lat": 10.204225, "lng": 77.901047, "hc": 5}]}, {"name": "TN49AW5908", "type": "rent", "cap": 15, "stops": 9, "riders": 20, "km": 90.3, "km_to_farthest": 41.6, "km_to_last": 30.3, "ride": 80, "cost": 1900, "seq": [{"name": "Usilampatti Vadugapatti Junction", "lat": 9.973083, "lng": 77.790433, "hc": 1}, {"name": "Kokanampatti", "lat": 9.973695, "lng": 77.792009, "hc": 3}, {"name": "Sor Nagar", "lat": 9.967367, "lng": 77.789564, "hc": 2}, {"name": "Usilampatti Poilce Station", "lat": 9.965896, "lng": 77.788804, "hc": 1}, {"name": "Kelaputhur Stop 2", "lat": 9.965666, "lng": 77.792681, "hc": 4}, {"name": "Malaiyandi Theatre", "lat": 9.965046, "lng": 77.794575, "hc": 7}, {"name": "Prc Depot", "lat": 9.964791, "lng": 77.796536, "hc": 6}, {"name": "Kallapatti", "lat": 9.914208, "lng": 77.849812, "hc": 3}, {"name": "Peyampatti", "lat": 9.927054, "lng": 77.84048, "hc": 2}]}, {"name": "TN69M1957", "type": "rent", "cap": 15, "stops": 9, "riders": 20, "km": 119.5, "km_to_farthest": 59.3, "km_to_last": 40.7, "ride": 86, "cost": 2235, "seq": [{"name": "Sanarpatti Bus Stand", "lat": 10.279852, "lng": 78.071742, "hc": 1}, {"name": "Union Office", "lat": 10.277548, "lng": 78.074833, "hc": 1}, {"name": "Velakaddu Road", "lat": 10.26268, "lng": 78.107975, "hc": 1}, {"name": "Gopalpatti Pertrol Bunk", "lat": 10.260092, "lng": 78.11435, "hc": 1}, {"name": "Gopalpatti Gh", "lat": 10.258732, "lng": 78.117818, "hc": 10}, {"name": "Gopalpatti", "lat": 10.257357, "lng": 78.120977, "hc": 3}, {"name": "Vadugapatti", "lat": 10.25656, "lng": 78.130328, "hc": 4}, {"name": "Servedu", "lat": 10.251152, "lng": 78.143988, "hc": 3}, {"name": "Natham", "lat": 10.240495, "lng": 78.22011, "hc": 3}]}, {"name": "TN02AB5688", "type": "rent", "cap": 15, "stops": 8, "riders": 20, "km": 81.5, "km_to_farthest": 34.9, "km_to_last": 24.0, "ride": 75, "cost": 1900, "seq": [{"name": "Kamaraj Nagar", "lat": 10.029479, "lng": 77.792345, "hc": 2}, {"name": "Velaimalaipatti Stop 1", "lat": 10.010522, "lng": 77.792477, "hc": 7}, {"name": "Uthapanayakanur", "lat": 10.015631, "lng": 77.792054, "hc": 2}, {"name": "Mendikkundu", "lat": 10.028413, "lng": 77.800615, "hc": 1}, {"name": "Pappapatti", "lat": 10.00976, "lng": 77.84883, "hc": 3}, {"name": "Pappapatti", "lat": 10.007032, "lng": 77.852272, "hc": 3}, {"name": "Minnampatti", "lat": 10.001608, "lng": 77.863348, "hc": 9}, {"name": "Pasukaranpatti", "lat": 9.995188, "lng": 77.845912, "hc": 3}]}, {"name": "TN20AJ3944", "type": "rent", "cap": 15, "stops": 8, "riders": 19, "km": 54.9, "km_to_farthest": 23.3, "km_to_last": 6.6, "ride": 53, "cost": 1700, "seq": [{"name": "Kannaapatti", "lat": 10.164828, "lng": 77.783652, "hc": 1}, {"name": "Melakovilpatti", "lat": 10.158305, "lng": 77.783813, "hc": 2}, {"name": "Malaiyapanpatti", "lat": 10.145919, "lng": 77.773273, "hc": 2}, {"name": "Uchapatti", "lat": 10.13921, "lng": 77.779001, "hc": 4}, {"name": "Utchampatti", "lat": 10.13225, "lng": 77.775918, "hc": 2}, {"name": "Meenachipuram", "lat": 10.12476, "lng": 77.778419, "hc": 7}, {"name": "Melachinnampatti", "lat": 10.073078, "lng": 77.764843, "hc": 6}, {"name": "Rajathanikottai", "lat": 10.074213, "lng": 77.739831, "hc": 3}]}, {"name": "TN31AC0182", "type": "rent", "cap": 15, "stops": 8, "riders": 20, "km": 49.5, "km_to_farthest": 20.3, "km_to_last": 11.1, "ride": 44, "cost": 1700, "seq": [{"name": "Kulathupatti College", "lat": 10.167682, "lng": 77.823693, "hc": 1}, {"name": "Pilibnagar", "lat": 10.170205, "lng": 77.826347, "hc": 6}, {"name": "Musuvanuthu", "lat": 10.131485, "lng": 77.846707, "hc": 2}, {"name": "Kundalapatti Pirivu", "lat": 10.108795, "lng": 77.846533, "hc": 1}, {"name": "Sirunayakanpatti Vepamara Stop", "lat": 10.10448, "lng": 77.853814, "hc": 1}, {"name": "Sirunayakanpatti", "lat": 10.106133, "lng": 77.854077, "hc": 6}, {"name": "Chekkapatti", "lat": 10.11021, "lng": 77.854888, "hc": 2}, {"name": "Pillayarnatham 2", "lat": 10.119632, "lng": 77.861966, "hc": 10}]}, {"name": "TN57P6909", "type": "rent", "cap": 15, "stops": 8, "riders": 20, "km": 75.5, "km_to_farthest": 34.1, "km_to_last": 24.8, "ride": 60, "cost": 1700, "seq": [{"name": "Renganathapuram", "lat": 10.10159, "lng": 77.679802, "hc": 9}, {"name": "A.Vadipatti 1", "lat": 10.087182, "lng": 77.689284, "hc": 1}, {"name": "A.Puthur", "lat": 10.083351, "lng": 77.674816, "hc": 5}, {"name": "Marugalpatti 2", "lat": 10.082256, "lng": 77.66173, "hc": 2}, {"name": "Santhrapuram", "lat": 10.080198, "lng": 77.655571, "hc": 2}, {"name": "Kullapuram Bus Stand", "lat": 10.066633, "lng": 77.642444, "hc": 5}, {"name": "Kullapuram 2", "lat": 10.066636, "lng": 77.6386, "hc": 3}, {"name": "Muthalakampatti Pirivu", "lat": 10.059504, "lng": 77.610602, "hc": 3}]}, {"name": "TN63U4754", "type": "rent", "cap": 15, "stops": 8, "riders": 20, "km": 81.9, "km_to_farthest": 27.8, "km_to_last": 26.7, "ride": 75, "cost": 1900, "seq": [{"name": "Idaiyapatti", "lat": 10.0051, "lng": 77.792065, "hc": 3}, {"name": "Meiyanampatti", "lat": 9.97981, "lng": 77.790869, "hc": 2}, {"name": "Usilampatti Railway Gate Stop 1", "lat": 9.97004, "lng": 77.789998, "hc": 12}, {"name": "Edayappatti", "lat": 9.99379, "lng": 77.814758, "hc": 1}, {"name": "Chinnapalarpatti", "lat": 9.997534, "lng": 77.807959, "hc": 6}, {"name": "Perumalkovilpatti", "lat": 10.002307, "lng": 77.80843, "hc": 4}, {"name": "Pasumponnagar", "lat": 10.008853, "lng": 77.802787, "hc": 1}, {"name": "Pudukottai", "lat": 10.010533, "lng": 77.808617, "hc": 4}]}, {"name": "TN74AY1634", "type": "rent", "cap": 15, "stops": 8, "riders": 20, "km": 46.5, "km_to_farthest": 25.7, "km_to_last": 3.7, "ride": 45, "cost": 1700, "seq": [{"name": "Sengattampatti", "lat": 10.221877, "lng": 77.81863, "hc": 9}, {"name": "Uthupatti 2", "lat": 10.200747, "lng": 77.831012, "hc": 1}, {"name": "Uthupatti", "lat": 10.196912, "lng": 77.833005, "hc": 2}, {"name": "Siluvarpatti Bus Stop", "lat": 10.15192, "lng": 77.885951, "hc": 10}, {"name": "Siluvarpatti", "lat": 10.149032, "lng": 77.887367, "hc": 1}, {"name": "Pallapatti 3", "lat": 10.138545, "lng": 77.907403, "hc": 3}, {"name": "Santhosapuram 2", "lat": 10.118383, "lng": 77.931965, "hc": 1}, {"name": "Santhosapuram", "lat": 10.115527, "lng": 77.933078, "hc": 1}]}, {"name": "TN20AL3611", "type": "rent", "cap": 15, "stops": 7, "riders": 20, "km": 92.2, "km_to_farthest": 39.5, "km_to_last": 34.3, "ride": 84, "cost": 1900, "seq": [{"name": "Pudur", "lat": 9.958291, "lng": 77.815584, "hc": 2}, {"name": "Sillampatti", "lat": 9.955712, "lng": 77.814754, "hc": 12}, {"name": "Ramanathapuram", "lat": 9.936498, "lng": 77.835733, "hc": 2}, {"name": "Kattathevanpatti", "lat": 9.921374, "lng": 77.836109, "hc": 5}, {"name": "Veppanuthu", "lat": 9.920028, "lng": 77.834442, "hc": 1}, {"name": "Vaguroorani", "lat": 9.910847, "lng": 77.811792, "hc": 4}, {"name": "Santhappatti", "lat": 9.908788, "lng": 77.811178, "hc": 2}]}, {"name": "TN23AC2721", "type": "rent", "cap": 15, "stops": 7, "riders": 20, "km": 92.6, "km_to_farthest": 40.7, "km_to_last": 29.9, "ride": 89, "cost": 1900, "seq": [{"name": "Suliolichanpatti", "lat": 10.021468, "lng": 77.842122, "hc": 6}, {"name": "Vellakarapatti", "lat": 9.999496, "lng": 77.861775, "hc": 8}, {"name": "Mayapuram", "lat": 9.993534, "lng": 77.867635, "hc": 3}, {"name": "Chinnakulavadi", "lat": 9.989536, "lng": 77.87085, "hc": 2}, {"name": "Ayyanarkulam", "lat": 9.992595, "lng": 77.879423, "hc": 5}, {"name": "Periyakulavadi", "lat": 9.979962, "lng": 77.868402, "hc": 2}, {"name": "Valanthur", "lat": 9.952029, "lng": 77.871313, "hc": 5}]}, {"name": "TN36L5458", "type": "rent", "cap": 15, "stops": 7, "riders": 20, "km": 35.1, "km_to_farthest": 11.4, "km_to_last": 3.6, "ride": 36, "cost": 1700, "seq": [{"name": "Lakshipuram", "lat": 10.183429, "lng": 77.793018, "hc": 3}, {"name": "Sevugampatti Stop 3", "lat": 10.197925, "lng": 77.804085, "hc": 1}, {"name": "Sevugampatti Stop 2", "lat": 10.19804, "lng": 77.806185, "hc": 11}, {"name": "Sevugampatti Stop 1", "lat": 10.198233, "lng": 77.81322, "hc": 2}, {"name": "Chinamalaiyankottai", "lat": 10.203, "lng": 77.825678, "hc": 6}, {"name": "Apalapatti Stop 2", "lat": 10.183642, "lng": 77.842548, "hc": 2}, {"name": "Kokkupatti", "lat": 10.179091, "lng": 77.852894, "hc": 4}]}, {"name": "TN40W3708", "type": "rent", "cap": 15, "stops": 7, "riders": 19, "km": 75.4, "km_to_farthest": 35.3, "km_to_last": 33.7, "ride": 55, "cost": 1700, "seq": [{"name": "Nehru Nagar", "lat": 10.139534, "lng": 77.557535, "hc": 1}, {"name": "E. Puthukotai", "lat": 10.135663, "lng": 77.556568, "hc": 6}, {"name": "Periyakulam Outer", "lat": 10.125679, "lng": 77.549867, "hc": 1}, {"name": "Periyakulam New Bus Stand", "lat": 10.125632, "lng": 77.545252, "hc": 5}, {"name": "VRB Naidu Street", "lat": 10.126118, "lng": 77.543344, "hc": 5}, {"name": "Alagarsamypuram 4", "lat": 10.125868, "lng": 77.537086, "hc": 6}, {"name": "Alagarsamypuram 2", "lat": 10.127065, "lng": 77.534646, "hc": 4}]}, {"name": "TN46F3361", "type": "rent", "cap": 15, "stops": 7, "riders": 18, "km": 53.2, "km_to_farthest": 23.8, "km_to_last": 19.5, "ride": 46, "cost": 1700, "seq": [{"name": "Veerakkal Colony", "lat": 10.321528, "lng": 77.871564, "hc": 3}, {"name": "South Mettupatti", "lat": 10.322371, "lng": 77.886061, "hc": 1}, {"name": "Veerakkal", "lat": 10.330223, "lng": 77.891743, "hc": 4}, {"name": "Mylapore", "lat": 10.335203, "lng": 77.893298, "hc": 2}, {"name": "Melapatti", "lat": 10.342804, "lng": 77.894726, "hc": 6}, {"name": "Anumantharayankottai", "lat": 10.342774, "lng": 77.908707, "hc": 9}, {"name": "Anaippatti", "lat": 10.341515, "lng": 77.911868, "hc": 1}]}, {"name": "TN57L8446", "type": "rent", "cap": 15, "stops": 7, "riders": 20, "km": 86.1, "km_to_farthest": 40.7, "km_to_last": 31.8, "ride": 73, "cost": 1900, "seq": [{"name": "Usilampatti Tlc School", "lat": 9.959415, "lng": 77.788727, "hc": 6}, {"name": "Naludevanpatti", "lat": 9.938402, "lng": 77.788343, "hc": 3}, {"name": "Samathivapuram", "lat": 9.924112, "lng": 77.789495, "hc": 1}, {"name": "Nalludevanpatti", "lat": 9.919358, "lng": 77.791295, "hc": 2}, {"name": "Rangasamypatti", "lat": 9.909768, "lng": 77.785755, "hc": 4}, {"name": "Kanavaipatti", "lat": 9.912527, "lng": 77.793905, "hc": 1}, {"name": "Perumalkovilpatti", "lat": 9.881777, "lng": 77.798532, "hc": 9}]}, {"name": "TN32X3929", "type": "rent", "cap": 15, "stops": 7, "riders": 20, "km": 59.7, "km_to_farthest": 21.7, "km_to_last": 18.1, "ride": 51, "cost": 1700, "seq": [{"name": "Silukuvarpatti 2", "lat": 10.152987, "lng": 77.88421, "hc": 4}, {"name": "Amaiyanayakanur", "lat": 10.168472, "lng": 77.914314, "hc": 6}, {"name": "Indira Nagar", "lat": 10.164594, "lng": 77.915637, "hc": 4}, {"name": "Pottychettipatti", "lat": 10.149132, "lng": 77.911117, "hc": 4}, {"name": "Pallapatti", "lat": 10.143777, "lng": 77.910703, "hc": 1}, {"name": "Velayuthapuram", "lat": 10.13388, "lng": 77.891495, "hc": 4}, {"name": "Panjalankurichi", "lat": 10.129673, "lng": 77.8883, "hc": 4}]}, {"name": "TN20AK5513", "type": "rent", "cap": 15, "stops": 6, "riders": 20, "km": 67.9, "km_to_farthest": 30.0, "km_to_last": 20.4, "ride": 62, "cost": 1700, "seq": [{"name": "Santhaiyur", "lat": 10.0938, "lng": 77.740478, "hc": 1}, {"name": "Kunathupatti 2", "lat": 10.06922, "lng": 77.712488, "hc": 7}, {"name": "Thepathupatti", "lat": 10.051768, "lng": 77.71237, "hc": 7}, {"name": "Kotuodapatti", "lat": 10.058207, "lng": 77.708083, "hc": 6}, {"name": "Dharmathupatti Gh", "lat": 10.064652, "lng": 77.671982, "hc": 1}, {"name": "Dharmathupatti Bus Stop", "lat": 10.064787, "lng": 77.668872, "hc": 4}]}, {"name": "TN39AP2287", "type": "rent", "cap": 15, "stops": 6, "riders": 20, "km": 106.9, "km_to_farthest": 52.3, "km_to_last": 33.0, "ride": 95, "cost": 1999, "seq": [{"name": "Panapatti", "lat": 9.949338, "lng": 77.788881, "hc": 7}, {"name": "Oththappatti", "lat": 9.950987, "lng": 77.7843, "hc": 6}, {"name": "Pannaipatti", "lat": 9.949735, "lng": 77.78695, "hc": 7}, {"name": "Rajakapatti", "lat": 9.887784, "lng": 77.764451, "hc": 2}, {"name": "Rajakapatti", "lat": 9.885863, "lng": 77.764055, "hc": 4}, {"name": "Sealinayankanpatti", "lat": 9.855248, "lng": 77.685093, "hc": 2}]}, {"name": "TN59AB3444", "type": "rent", "cap": 15, "stops": 6, "riders": 20, "km": 64.4, "km_to_farthest": 23.0, "km_to_last": 7.0, "ride": 40, "cost": 1700, "seq": [{"name": "Btl Navin Bakery", "lat": 10.177048, "lng": 77.759715, "hc": 1}, {"name": "Kattakamanpatti", "lat": 10.163517, "lng": 77.731304, "hc": 8}, {"name": "Kamakapatti", "lat": 10.178408, "lng": 77.667895, "hc": 2}, {"name": "Pullakapatti Byepass", "lat": 10.144517, "lng": 77.651792, "hc": 9}, {"name": "Devadhanapatti Byepass", "lat": 10.142742, "lng": 77.646437, "hc": 4}, {"name": "Devathanapatti Byepass", "lat": 10.142878, "lng": 77.633863, "hc": 5}]}, {"name": "TN74AW0645", "type": "rent", "cap": 15, "stops": 6, "riders": 20, "km": 98.9, "km_to_farthest": 49.4, "km_to_last": 32.2, "ride": 85, "cost": 1900, "seq": [{"name": "Usilampatti Guru Mahal", "lat": 9.956263, "lng": 77.788958, "hc": 1}, {"name": "Jothi Nayakannur", "lat": 9.881752, "lng": 77.753469, "hc": 4}, {"name": "Konanayakanpatti", "lat": 9.879778, "lng": 77.749385, "hc": 1}, {"name": "Uthapuram Stop2", "lat": 9.870582, "lng": 77.716043, "hc": 1}, {"name": "Uthapuram Stop 2", "lat": 9.871324, "lng": 77.713672, "hc": 17}, {"name": "Elumalai", "lat": 9.86511, "lng": 77.700035, "hc": 2}]}, {"name": "TN05V6697", "type": "rent", "cap": 15, "stops": 5, "riders": 19, "km": 62.1, "km_to_farthest": 30.4, "km_to_last": 22.1, "ride": 52, "cost": 1700, "seq": [{"name": "Sirunayakanpatti Colony", "lat": 10.102974, "lng": 77.853699, "hc": 5}, {"name": "Muthulingapuram", "lat": 10.094463, "lng": 77.860357, "hc": 4}, {"name": "Vilamapatti 4", "lat": 10.091672, "lng": 77.880165, "hc": 14}, {"name": "Mataparai 2", "lat": 10.092898, "lng": 77.913516, "hc": 2}, {"name": "Mataparai 1", "lat": 10.09217, "lng": 77.916044, "hc": 1}]}, {"name": "TN31AY8208", "type": "rent", "cap": 15, "stops": 5, "riders": 20, "km": 64.6, "km_to_farthest": 32.3, "km_to_last": 26.2, "ride": 40, "cost": 1700, "seq": [{"name": "Mary Matha College", "lat": 10.130508, "lng": 77.609236, "hc": 5}, {"name": "Kamatchipuram", "lat": 10.130355, "lng": 77.592845, "hc": 2}, {"name": "Endapuli Puthupatti", "lat": 10.12928, "lng": 77.577013, "hc": 11}, {"name": "Endapuli", "lat": 10.129147, "lng": 77.572183, "hc": 1}, {"name": "Murugamalai", "lat": 10.142017, "lng": 77.563638, "hc": 10}]}, {"name": "TN42A3533", "type": "rent", "cap": 15, "stops": 5, "riders": 19, "km": 74.9, "km_to_farthest": 36.5, "km_to_last": 32.8, "ride": 52, "cost": 1700, "seq": [{"name": "State Bank Colony Pirivu", "lat": 10.127045, "lng": 77.55071, "hc": 2}, {"name": "Thevar Salai", "lat": 10.118302, "lng": 77.545987, "hc": 1}, {"name": "T.Kallipatti", "lat": 10.106513, "lng": 77.54319, "hc": 8}, {"name": "Kailasapatti", "lat": 10.0987, "lng": 77.53431, "hc": 12}, {"name": "Kailasapatti Colony", "lat": 10.100247, "lng": 77.53747, "hc": 5}]}, {"name": "TN59AH9703", "type": "rent", "cap": 15, "stops": 5, "riders": 20, "km": 110.5, "km_to_farthest": 46.3, "km_to_last": 33.2, "ride": 89, "cost": 2066, "seq": [{"name": "Kakkiveeranpatti", "lat": 9.961166, "lng": 77.80672, "hc": 11}, {"name": "Cokkadevanpatti", "lat": 9.952372, "lng": 77.869722, "hc": 9}, {"name": "Valanthur Eb Stop", "lat": 9.950609, "lng": 77.875579, "hc": 5}, {"name": "Chellampatti", "lat": 9.944676, "lng": 77.895766, "hc": 1}, {"name": "Thummakkoondu", "lat": 9.8801, "lng": 77.86621, "hc": 3}]}, {"name": "TN54T2368", "type": "rent", "cap": 15, "stops": 4, "riders": 20, "km": 80.8, "km_to_farthest": 37.8, "km_to_last": 33.1, "ride": 71, "cost": 1900, "seq": [{"name": "Boothipuram", "lat": 9.968233, "lng": 77.813723, "hc": 4}, {"name": "Mekkilarpatti", "lat": 9.954044, "lng": 77.813959, "hc": 2}, {"name": "Puththur", "lat": 9.948653, "lng": 77.812251, "hc": 12}, {"name": "Kuppanampatti", "lat": 9.949874, "lng": 77.845844, "hc": 8}]}]}